{"type":"FeatureCollection","crs":{"type":"name","properties":{"name":"EPSG:2230"}},"features":[{"type":"Feature","id":1,"geometry":{"type":"Point","coordinates":[6302953.523890391,1990769.0610967278]},"properties":{"objectid":1,"name":"North Inland Region Public Health Center","address":"649 W Mission Ave, Suite 2, Escondido, CA 92025","hours":"Mon - 8:00am to 5:00pm\nTues - 8:00am to 5:00pm\nWeds - 8:00am to 5:00pm\nThurs - 8:00am to 5:00pm\nFri - 8:00am to 5:00pm\nSat - Closed\nSun - Closed\nHolidays - Closed","phone_number":"(760) 740-3000","directions":"https://www.google.com/maps/dir//649+W+Mission+Ave+%232,+Escondido,+CA+92025/"}},{"type":"Feature","id":2,"geometry":{"type":"Point","coordinates":[6304265.9526959658,1801548.3171636462]},"properties":{"objectid":2,"name":"South Region Public Health Center","address":"690 Oxford St, Chula Vista, CA 91911","hours":"Mon - 8:00am to 5:00pm\nTues - 8:00am to 5:00pm\nWeds - 8:00am to 5:00pm\nThurs - 8:00am to 5:00pm\nFri - 8:00am to 5:00pm\nSat - Closed\nSun - Closed\nHolidays - Closed","phone_number":"(619) 409-3110","directions":"https://www.google.com/maps/dir//690+Oxford+St,+Chula+Vista,+CA+91911/"}},{"type":"Feature","id":3,"geometry":{"type":"Point","coordinates":[6342870.0437947214,1871169.2527246475]},"properties":{"objectid":3,"name":"East Public Health Center","address":"367 North Magnolia Avenue, El Cajon, CA 92020","hours":"Mon - 8:00am to 5:00pm\nTues - 8:00am to 5:00pm\nWeds - 8:00am to 5:00pm\nThurs - 8:00am to 5:00pm\nFri - 8:00am to 5:00pm\nSat - Closed\nSun - Closed\nHolidays - Closed","phone_number":"(619) 441-6500","directions":"https://www.google.com/maps/dir//367+Magnolia+Ave,+El+Cajon,+CA+92020/"}},{"type":"Feature","id":4,"geometry":{"type":"Point","coordinates":[6292511.6313883811,1881922.3798403889]},"properties":{"objectid":4,"name":"North Central Public Health Center","address":"5055 Ruffin Rd, San Diego, CA 92123","hours":"Mon - 8:00am to 5:00pm\nTues - 8:00am to 5:00pm\nWeds - 8:00am to 5:00pm\nThurs - 8:00am to 5:00pm\nFri - 8:00am to 5:00pm\nSat - Closed\nSun - Closed\nHolidays - Closed","phone_number":"(858) 573-7300","directions":"https://www.google.com/maps/dir//5055+Ruffin+Rd,+San+Diego,+CA+92123/"}},{"type":"Feature","id":5,"geometry":{"type":"Point","coordinates":[6237337.4989547133,2021962.6840768158]},"properties":{"objectid":5,"name":"North Coastal Public Health Center","address":"3609 Ocean Ranch Blvd, Suite 104, Oceanside, CA 92056","hours":"Mon - 8:00am to 5:00pm\nTues - 8:00am to 5:00pm\nWeds - 8:00am to 5:00pm\nThurs - 8:00am to 5:00pm\nFri - 8:00am to 5:00pm\nSat - Closed\nSun - Closed\nHolidays - Closed","phone_number":"(760) 967-4401","directions":"https://www.google.com/maps/dir//3609+Ocean+Ranch+Blvd+%23+104,+Oceanside,+CA+92056/"}},{"type":"Feature","id":6,"geometry":{"type":"Point","coordinates":[6226085.3961308897,2023628.3608635664]},"properties":{"objectid":6,"name":"North County LGBTQ Resource Center","address":"3220 Mission Ave, Suite 2, Oceanside, CA 92058","hours":"Mon - 10:00am to 6:00pm\nTues - 10:00am to 6:00pm\nWeds - 10:00am to 6:00pm\nThurs - 10:00am to 6:00pm\nFri - 10:00am to 6:00pm\nSat - Closed\nSun - Closed","phone_number":"(760) 994-1690","directions":"https://www.google.com/maps/dir//3220+Mission+Ave,+Oceanside,+CA+92058/"}},{"type":"Feature","id":7,"geometry":{"type":"Point","coordinates":[6284987.0001122206,1837946.9999435544]},"properties":{"objectid":7,"name":"Family Health Centers of SD SafePoint Program","address":"Imperial Ave & 16th St, San Diego, CA 92101","hours":"Tuesdays and Thursdays, 6 to 9 p.m.\nMon - Closed\nTues - 6:00pm to 9:00pm\nWeds - 6:00pm to 9:00pm\nThurs - 6:00pm to 9:00pm\nFri - 6:00pm to 9:00pm\nSat - Closed\nSun - Closed","phone_number":"(619) 993-0216","directions":"https://www.google.com/maps/dir//Imperial+Ave+%26+16th+St,+San+Diego,+CA+92101/"}},{"type":"Feature","id":8,"geometry":{"type":"Point","coordinates":[6291963.0002678037,1852858.9999751449]},"properties":{"objectid":8,"name":"Family Health Centers of SD Safe Point Program","address":"31st St & North Park Way, San Diego, CA 92104","hours":"Fri - 10:00am to 1:00pm","phone_number":"(619) 993-0216","directions":"https://www.google.com/maps/dir//31st+St+%26+N+Park+Way,+San+Diego,+CA+92104/"}},{"type":"Feature","id":9,"geometry":{"type":"Point","coordinates":[6304973.5316613913,1839231.3713905662]},"properties":{"objectid":9,"name":"Central Region Public Health Center","address":"5101 Market St, San Diego, CA 92114","hours":"Mon - 8:00am to 5:00pm\nTues - 8:00am to 5:00pm\nWeds - 8:00am to 5:00pm\nThurs - 8:00am to 5:00pm\nFri - 8:00am to 5:00pm\nSat - Closed\nSun - Closed\nHolidays - Closed","phone_number":"(619) 229-5400","directions":"https://www.google.com/maps/dir//5101+Market+St,+San+Diego,+CA+92114/"}},{"type":"Feature","id":10,"geometry":{"type":"Point","coordinates":[6293980.9033842236,1878859.0053897202]},"properties":{"objectid":10,"name":"Sheriff's Headquarters","address":"9621 Ridgehaven Court, San Diego, CA 92123","hours":"Mon - 8:00am to 5:00pm\nTues - 8:00am to 5:00pm\nWeds - 8:00am to 5:00pm\nThurs - 8:00am to 5:00pm\nFri - 8:00am to 5:00pm\nSat - Closed\nSun - Closed\nHolidays - Closed","phone_number":"(858) 974-2222","directions":"https://www.google.com/maps/dir//9621%20Ridgehaven%20Court,%20San%20Diego,%20CA%2092123"}},{"type":"Feature","id":11,"geometry":{"type":"Point","coordinates":[6278077.9670142978,1843906.1228678077]},"properties":{"objectid":11,"name":"San Diego County Administration Center","address":"1600 Pacific Hwy, San Diego, CA 92101","hours":"Mon - 8:00am to 5:00pm\nTues - 8:00am to 5:00pm\nWeds - 8:00am to 5:00pm\nThurs - 8:00am to 5:00pm\nFri - 8:00am to 5:00pm\nSat - Closed\nSun - Closed\nHolidays - Closed","phone_number":"(858) 694-3900","directions":"https://www.google.com/maps/dir//1600%20Pacific%20Hwy,%20San%20Diego,%20CA%2092101"}},{"type":"Feature","id":12,"geometry":{"type":"Point","coordinates":[6295332.7848668098,1952580.0744827241]},"properties":{"objectid":12,"name":"4S Ranch Substation","address":"10282 Rancho Bernardo Rd., San Diego, CA 92127","hours":"Mon - 8:00am to 5:00pm\nTues - 8:00am to 5:00pm\nWeds - 8:00am to 5:00pm\nThurs - 8:00am to 5:00pm\nFri - 8:00am to 5:00pm\nSat - Closed\nSun - Closed\nHolidays - Closed","phone_number":"(858) 521-5200","directions":"https://www.google.com/maps/dir//10282%20Rancho%20Bernardo%20Rd.,%20San%20Diego,%20CA%2092127"}},{"type":"Feature","id":13,"geometry":{"type":"Point","coordinates":[6406810.7781177163,1883693.2732802331]},"properties":{"objectid":13,"name":"Alpine Station","address":"2751 Alpine Blvd, Alpine, CA 91901","hours":"Mon - 8:00am to 5:00pm\nTues - 8:00am to 5:00pm\nWeds - 8:00am to 5:00pm\nThurs - 8:00am to 5:00pm\nFri - 8:00am to 5:00pm\nSat - Closed\nSun - Closed\nHolidays - Closed","phone_number":"(619) 659-2600","directions":"https://www.google.com/maps/dir//2751+Alpine+Blvd,+Alpine,+CA+91901/"}},{"type":"Feature","id":14,"geometry":{"type":"Point","coordinates":[6257008.3369095474,2084173.9855069816]},"properties":{"objectid":14,"name":"Fallbrook Substation","address":"388 East Alvarado St., Fallbrook, CA 92028","hours":"Mon - 8:00am to 5:00pm\nTues - 8:00am to 5:00pm\nWeds - 8:00am to 5:00pm\nThurs - 8:00am to 5:00pm\nFri - 8:00am to 5:00pm\nSat - Closed\nSun - Closed\nHolidays - Closed","phone_number":"(760) 451-3100","directions":"https://www.google.com/maps/dir//388+E+Alvarado+St,+Fallbrook,+CA+92028/"}},{"type":"Feature","id":15,"geometry":{"type":"Point","coordinates":[6354826.5635168105,1795306.5543847233]},"properties":{"objectid":15,"name":"George Bailey Detention Facility","address":"446 Alta Rd #5300, San Diego, CA 92158","hours":"Mon - 8:00am to 5:00pm\nTues - 8:00am to 5:00pm\nWeds - 8:00am to 5:00pm\nThurs - 8:00am to 5:00pm\nFri - 8:00am to 5:00pm\nSat - Closed\nSun - Closed\nHolidays - Closed","phone_number":"(619) 210-0385","directions":"https://www.google.com/maps/dir//446+Alta+Rd,+Jamul,+CA+91935/"}},{"type":"Feature","id":16,"geometry":{"type":"Point","coordinates":[6453425.4978802204,1971829.2689238936]},"properties":{"objectid":16,"name":"Julian Substation","address":"2907 Washington St., Julian, CA 92036","hours":"Mon - 8:00am to 5:00pm\nTues - 8:00am to 5:00pm\nWeds - 8:00am to 5:00pm\nThurs - 8:00am to 5:00pm\nFri - 8:00am to 5:00pm\nSat - Closed\nSun - Closed\nHolidays - Closed","phone_number":"(760) 765-4780","directions":"https://www.google.com/maps/dir//2907+Washington+St,+Julian,+CA+92036/"}},{"type":"Feature","id":17,"geometry":{"type":"Point","coordinates":[6354860.7284747213,1892588.3650700599]},"properties":{"objectid":17,"name":"Lakeside Substation","address":"12365 Parkside St., Lakeside, CA 92040","hours":"Mon - 8:00am to 5:00pm\nTues - 8:00am to 5:00pm\nWeds - 8:00am to 5:00pm\nThurs - 8:00am to 5:00pm\nFri - 8:00am to 5:00pm\nSat - Closed\nSun - Closed\nHolidays - Closed","phone_number":"(619) 938-1360","directions":"https://www.google.com/maps/dir//12365+Parkside+St,+Lakeside,+CA+92040/"}},{"type":"Feature","id":18,"geometry":{"type":"Point","coordinates":[6339741.9506414682,1887517.476261735]},"properties":{"objectid":18,"name":"Las Colinas Detention and Reentry Facility","address":"451 Riverview Pkwy, Santee, CA 92071","hours":"Mon - 8:00am to 5:00pm\nTues - 8:00am to 5:00pm\nWeds - 8:00am to 5:00pm\nThurs - 8:00am to 5:00pm\nFri - 8:00am to 5:00pm\nSat - Closed\nSun - Closed\nHolidays - Closed","phone_number":"(619) 409-5000","directions":"https://www.google.com/maps/dir//451+Riverview+Pkwy,+Santee,+CA+92071/"}},{"type":"Feature","id":19,"geometry":{"type":"Point","coordinates":[6321305.6837083101,1850151.2301282287]},"properties":{"objectid":19,"name":"Lemon Grove Substation","address":"3240 Main Street, Lemon Grove, CA 91945","hours":"Mon - 8:00am to 5:00pm\nTues - 8:00am to 5:00pm\nWeds - 8:00am to 5:00pm\nThurs - 8:00am to 5:00pm\nFri - 8:00am to 5:00pm\nSat - Closed\nSun - Closed\nHolidays - Closed","phone_number":"(619) 337-2000","directions":"https://www.google.com/maps/dir//3240+Main+St,+Lemon+Grove,+CA+91945/"}},{"type":"Feature","id":20,"geometry":{"type":"Point","coordinates":[6347166.1782470495,1849739.7109381407]},"properties":{"objectid":20,"name":"Rancho San Diego Station","address":"11486 Campo Rd., Spring Valley, CA 91978","hours":"Mon - 8:00am to 5:00pm\nTues - 8:00am to 5:00pm\nWeds - 8:00am to 5:00pm\nThurs - 8:00am to 5:00pm\nFri - 8:00am to 5:00pm\nSat - Closed\nSun - Closed\nHolidays - Closed","phone_number":"(619) 660-7090","directions":"https://www.google.com/maps/dir//11486+Campo+Rd,+Spring+Valley,+CA+91978/"}},{"type":"Feature","id":21,"geometry":{"type":"Point","coordinates":[6306824.7750061303,1810982.0620756447]},"properties":{"objectid":21,"name":"South Bay Detention Facility","address":"500 Third Ave., Chula Vista, CA 91910","hours":"Mon - 8:00am to 5:00pm\nTues - 8:00am to 5:00pm\nWeds - 8:00am to 5:00pm\nThurs - 8:00am to 5:00pm\nFri - 8:00am to 5:00pm\nSat - Closed\nSun - Closed\nHolidays - Closed","phone_number":"(619) 409-5000","directions":"https://www.google.com/maps/dir//500+Third+Ave,+Chula+Vista,+CA+91910/"}},{"type":"Feature","id":22,"geometry":{"type":"Point","coordinates":[6474940.1284072995,1880296.3371607214]},"properties":{"objectid":22,"name":"Pine Valley Substation","address":"28696 Old Highway 80, Pine Valley, CA 91962","hours":"Mon - 8:00am to 5:00pm\nTues - 8:00am to 5:00pm\nWeds - 8:00am to 5:00pm\nThurs - 8:00am to 5:00pm\nFri - 8:00am to 5:00pm\nSat - Closed\nSun - Closed\nHolidays - Closed","phone_number":"(619) 938-8400","directions":"https://www.google.com/maps/dir//28696+Old+Hwy+80,+Pine+Valley,+CA+91962/"}},{"type":"Feature","id":23,"geometry":{"type":"Point","coordinates":[6280449.6771658808,1842016.4153611511]},"properties":{"objectid":23,"name":"San Diego Central Jail","address":"1173 Front Street, San Diego, CA 92101","hours":"Mon - 8:00am to 5:00pm\nTues - 8:00am to 5:00pm\nWeds - 8:00am to 5:00pm\nThurs - 8:00am to 5:00pm\nFri - 8:00am to 5:00pm\nSat - Closed\nSun - Closed\nHolidays - Closed","phone_number":"(619) 409-5000","directions":"https://www.google.com/maps/dir//1173+Front+St,+San+Diego,+CA+92101/"}},{"type":"Feature","id":24,"geometry":{"type":"Point","coordinates":[6494007.7552982271,1800072.5934090614]},"properties":{"objectid":24,"name":"Campo Substation","address":"378 Sheridan Rd., Campo, CA 91906","hours":"Mon - 8:00am to 5:00pm\nTues - 8:00am to 5:00pm\nWeds - 8:00am to 5:00pm\nThurs - 8:00am to 5:00pm\nFri - 8:00am to 5:00pm\nSat - Closed\nSun - Closed\nHolidays - Closed","phone_number":"(619) 478-5378","directions":"https://www.google.com/maps/dir//378+Sheridan+Rd,+Campo,+CA+91906/"}},{"type":"Feature","id":25,"geometry":{"type":"Point","coordinates":[6339910.02412422,2026527.245485723]},"properties":{"objectid":25,"name":"Valley Center Substation","address":"28201 N. Lake Wohlford Rd., Valley Center, CA 92082","hours":"Mon - 8:00am to 5:00pm\nTues - 8:00am to 5:00pm\nWeds - 8:00am to 5:00pm\nThurs - 8:00am to 5:00pm\nFri - 8:00am to 5:00pm\nSat - Closed\nSun - Closed\nHolidays - Closed","phone_number":"(760) 751-4400","directions":"https://www.google.com/maps/dir//28201+N+Lake+Wohlford+Rd,+Valley+Center,+CA+92082/"}},{"type":"Feature","id":26,"geometry":{"type":"Point","coordinates":[6461214.6371575594,2008728.1229475588]},"properties":{"objectid":26,"name":"Ranchita Substation","address":"25704 San Felipe Rd., Warner Springs, CA 92086","hours":"Mon - 8:00am to 5:00pm\nTues - 8:00am to 5:00pm\nWeds - 8:00am to 5:00pm\nThurs - 8:00am to 5:00pm\nFri - 8:00am to 5:00pm\nSat - Closed\nSun - Closed\nHolidays - Closed","phone_number":"(760) 906-6140","directions":"https://www.google.com/maps/dir//25704+San+Felipe+Rd,+Warner+Springs,+CA+92086/"}},{"type":"Feature","id":27,"geometry":{"type":"Point","coordinates":[6317675.2464153916,1928091.8212939799]},"properties":{"objectid":27,"name":"Poway Station","address":"13100 Bowron Rd., Poway, CA 92064","hours":"Mon - 8:00am to 5:00pm\nTues - 8:00am to 5:00pm\nWeds - 8:00am to 5:00pm\nThurs - 8:00am to 5:00pm\nFri - 8:00am to 5:00pm\nSat - Closed\nSun - Closed\nHolidays - Closed","phone_number":"(858) 513-2800","directions":"https://www.google.com/maps/dir//13100+Bowron+Rd,+Poway,+CA+92064/"}},{"type":"Feature","id":28,"geometry":{"type":"Point","coordinates":[6254503.6263678074,2014712.0578300655]},"properties":{"objectid":28,"name":"Vista Detention Center","address":"325 S. Melrose Dr., Ste. 200, Vista, CA 92081","hours":"Mon - 8:00am to 5:00pm\nTues - 8:00am to 5:00pm\nWeds - 8:00am to 5:00pm\nThurs - 8:00am to 5:00pm\nFri - 8:00am to 5:00pm\nSat - Closed\nSun - Closed\nHolidays - Closed","phone_number":"(619) 409-5000","directions":"https://www.google.com/maps/dir//325+S+Melrose+Dr+Suite+200,+Vista,+CA+92081/"}},{"type":"Feature","id":29,"geometry":{"type":"Point","coordinates":[6252336.6448093802,1962882.7563051432]},"properties":{"objectid":29,"name":"North Coastal Station","address":"175 North El Camino Real, Encinitas, CA 92024","hours":"Mon - 8:00am to 5:00pm\nTues - 8:00am to 5:00pm\nWeds - 8:00am to 5:00pm\nThurs - 8:00am to 5:00pm\nFri - 8:00am to 5:00pm\nSat - Closed\nSun - Closed\nHolidays - Closed","phone_number":"(760) 966-3500","directions":"https://www.google.com/maps/dir//175+N+El+Camino+Real,+Encinitas,+CA+92024/"}},{"type":"Feature","id":30,"geometry":{"type":"Point","coordinates":[6522556.722150296,2035775.5015954822]},"properties":{"objectid":30,"name":"Borrego Springs Office","address":"2620 Country Club Rd, San Diego, CA 92004","hours":"Mon - 8:00am to 5:00pm\nTues - 8:00am to 5:00pm\nWeds - 8:00am to 5:00pm\nThurs - 8:00am to 5:00pm\nFri - 8:00am to 5:00pm\nSat - Closed\nSun - Closed\nHolidays - Closed","phone_number":"(760) 767-5656","directions":"https://www.google.com/maps/dir//2620+Country+Club+Rd,+Borrego+Springs,+CA+92004/"}},{"type":"Feature","id":31,"geometry":{"type":"Point","coordinates":[6295021.2372615486,1790602.4053284824]},"properties":{"objectid":31,"name":"Imperial Beach Substation","address":"845 Imperial Beach Blvd., Imperial Beach, CA 91932","hours":"Mon - 8:00am to 5:00pm\nTues - 8:00am to 5:00pm\nWeds - 8:00am to 5:00pm\nThurs - 8:00am to 5:00pm\nFri - 8:00am to 5:00pm\nSat - Closed\nSun - Closed\nHolidays - Closed","phone_number":"(619) 498-2400","directions":"https://www.google.com/maps/dir//845+Imperial+Beach+Blvd,+Imperial+Beach,+CA+91932/"}},{"type":"Feature","id":32,"geometry":{"type":"Point","coordinates":[6287448.8924981356,1996261.4874478132]},"properties":{"objectid":32,"name":"San Marcos Station","address":"182 Santar Place, San Marcos, CA 92069","hours":"Mon - 8:00am to 5:00pm\nTues - 8:00am to 5:00pm\nWeds - 8:00am to 5:00pm\nThurs - 8:00am to 5:00pm\nFri - 8:00am to 5:00pm\nSat - Closed\nSun - Closed\nHolidays - Closed","phone_number":"(760) 510-5200","directions":"https://www.google.com/maps/dir//182+Santar+Pl,+San+Marcos,+CA+92069/"}},{"type":"Feature","id":33,"geometry":{"type":"Point","coordinates":[6369517.0229809731,1958015.4809347242]},"properties":{"objectid":33,"name":"Ramona Substation","address":"1424 Montecito Rd., Ramona, CA 92065","hours":"Mon - 8:00am to 5:00pm\nTues - 8:00am to 5:00pm\nWeds - 8:00am to 5:00pm\nThurs - 8:00am to 5:00pm\nFri - 8:00am to 5:00pm\nSat - Closed\nSun - Closed\nHolidays - Closed","phone_number":"(760) 789-9157","directions":"https://www.google.com/maps/dir//1424+Montecito+Rd,+Ramona,+CA+92065/"}},{"type":"Feature","id":34,"geometry":{"type":"Point","coordinates":[6336335.1231375486,1884811.3996528983]},"properties":{"objectid":34,"name":"Santee Station","address":"8811 Cuyamaca St., Santee, CA 92071","hours":"Mon - 8:00am to 5:00pm\nTues - 8:00am to 5:00pm\nWeds - 8:00am to 5:00pm\nThurs - 8:00am to 5:00pm\nFri - 8:00am to 5:00pm\nSat - Closed\nSun - Closed\nHolidays - Closed","phone_number":"(619) 956-4000","directions":"https://www.google.com/maps/dir//8811+Cuyamaca+St,+Santee,+CA+92071/"}},{"type":"Feature","id":35,"geometry":{"type":"Point","coordinates":[6254584.7928721309,2015297.0464894772]},"properties":{"objectid":35,"name":"Vista Station","address":"325 South Melrose Dr., Ste. 210, Vista, CA 92081","hours":"Mon - 8:00am to 5:00pm\nTues - 8:00am to 5:00pm\nWeds - 8:00am to 5:00pm\nThurs - 8:00am to 5:00pm\nFri - 8:00am to 5:00pm\nSat - Closed\nSun - Closed\nHolidays - Closed","phone_number":"(760) 940-4551","directions":"https://www.google.com/maps/dir//325+S+Melrose+Dr+%23+210,+Vista,+CA+92081/"}}]}